[
  {
    "name": "San Diego Smile Dentistry",
    "abbreviation": "SD Smile",
    "address": "7710 Balboa Ave",
    "area": "Kearny Mesa",
    "city": "San Diego",
    "state": "CA",
    "zip": 92111,
    "phone": "(619) 737-6453",
    "latitude": 32.82225,
    "longitude": -117.157913,
    "procedure": "Adult Cleaning",
    "cost": 105,
    "website": "https://sd-smile.com/",
    "fake_data": "Mock Data"
  },
  {
    "name": "San Diego Smile Dentistry",
    "abbreviation": "SD Smile",
    "address": "7710 Balboa Ave",
    "area": "Kearny Mesa",
    "city": "San Diego",
    "state": "CA",
    "zip": 92111,
    "phone": "(619) 737-6453",
    "latitude": 32.82225,
    "longitude": -117.157913,
    "procedure": "Composite Filling",
    "cost": 140,
    "website": "https://sd-smile.com/",
    "fake_data": "Mock Data"
  },
  {
    "name": "San Diego Smile Dentistry",
    "abbreviation": "SD Smile",
    "address": "7710 Balboa Ave",
    "area": "Kearny Mesa",
    "city": "San Diego",
    "state": "CA",
    "zip": 92111,
    "phone": "(619) 737-6453",
    "latitude": 32.82225,
    "longitude": -117.157913,
    "procedure": "Extraction",
    "cost": 110,
    "website": "https://sd-smile.com/",
    "fake_data": "Mock Data"
  },
  {
    "name": "San Diego Smile Dentistry",
    "abbreviation": "SD Smile",
    "address": "7710 Balboa Ave",
    "area": "Kearny Mesa",
    "city": "San Diego",
    "state": "CA",
    "zip": 92111,
    "phone": "(619) 737-6453",
    "latitude": 32.82225,
    "longitude": -117.157913,
    "procedure": "Root Canal",
    "cost": 725,
    "website": "https://sd-smile.com/",
    "fake_data": "Mock Data"
  },
  {
    "name": "San Diego Smile Dentistry",
    "abbreviation": "SD Smile",
    "address": "7710 Balboa Ave",
    "area": "Kearny Mesa",
    "city": "San Diego",
    "state": "CA",
    "zip": 92111,
    "phone": "(619) 737-6453",
    "latitude": 32.82225,
    "longitude": -117.157913,
    "procedure": "Porcelain Crown",
    "cost": 850,
    "website": "https://sd-smile.com/",
    "fake_data": "Mock Data"
  },
  {
    "name": "Great Smile Dental",
    "abbreviation": "Great Smile",
    "address": "5210 Balboa Ave",
    "area": "Clairemont",
    "city": "San Diego",
    "state": "CA",
    "zip": 92117,
    "phone": "(858) 598-5842",
    "latitude": 32.81897,
    "longitude": -117.183968,
    "procedure": "Adult Cleaning",
    "cost": 95,
    "website": "https://great-smile-dental-orthodontics-and-periodontics.business.site/",
    "fake_data": "Mock Data"
  },
  {
    "name": "Great Smile Dental",
    "abbreviation": "Great Smile",
    "address": "5210 Balboa Ave",
    "area": "Clairemont",
    "city": "San Diego",
    "state": "CA",
    "zip": 92117,
    "phone": "(858) 598-5842",
    "latitude": 32.81897,
    "longitude": -117.183968,
    "procedure": "Composite Filling",
    "cost": 120,
    "website": "https://great-smile-dental-orthodontics-and-periodontics.business.site/",
    "fake_data": "Mock Data"
  },
  {
    "name": "Great Smile Dental",
    "abbreviation": "Great Smile",
    "address": "5210 Balboa Ave",
    "area": "Clairemont",
    "city": "San Diego",
    "state": "CA",
    "zip": 92117,
    "phone": "(858) 598-5842",
    "latitude": 32.81897,
    "longitude": -117.183968,
    "procedure": "Extraction",
    "cost": 110,
    "website": "https://great-smile-dental-orthodontics-and-periodontics.business.site/",
    "fake_data": "Mock Data"
  },
  {
    "name": "Great Smile Dental",
    "abbreviation": "Great Smile",
    "address": "5210 Balboa Ave",
    "area": "Clairemont",
    "city": "San Diego",
    "state": "CA",
    "zip": 92117,
    "phone": "(858) 598-5842",
    "latitude": 32.81897,
    "longitude": -117.183968,
    "procedure": "Root Canal",
    "cost": 765,
    "website": "https://great-smile-dental-orthodontics-and-periodontics.business.site/",
    "fake_data": "Mock Data"
  },
  {
    "name": "Great Smile Dental",
    "abbreviation": "Great Smile",
    "address": "5210 Balboa Ave",
    "area": "Clairemont",
    "city": "San Diego",
    "state": "CA",
    "zip": 92117,
    "phone": "(858) 598-5842",
    "latitude": 32.81897,
    "longitude": -117.183968,
    "procedure": "Porcelain Crown",
    "cost": 1105,
    "website": "https://great-smile-dental-orthodontics-and-periodontics.business.site/",
    "fake_data": "Mock Data"
  },
  {
    "name": "Dental Express",
    "abbreviation": "Express",
    "address": "4110 W Point Loma Blvd",
    "area": "Midway",
    "city": "San Diego",
    "state": "CA",
    "zip": 92110,
    "phone": "(619) 304-7327",
    "latitude": 32.753737,
    "longitude": -117.223805,
    "procedure": "Adult Cleaning",
    "cost": 100,
    "website": "https://thedentalexpress.com/w-point-loma-blvd/",
    "fake_data": "Mock Data"
  },
  {
    "name": "Dental Express",
    "abbreviation": "Express",
    "address": "4110 W Point Loma Blvd",
    "area": "Midway",
    "city": "San Diego",
    "state": "CA",
    "zip": 92110,
    "phone": "(619) 304-7327",
    "latitude": 32.753737,
    "longitude": -117.223805,
    "procedure": "Composite Filling",
    "cost": 120,
    "website": "https://thedentalexpress.com/w-point-loma-blvd/",
    "fake_data": "Mock Data"
  },
  {
    "name": "Dental Express",
    "abbreviation": "Express",
    "address": "4110 W Point Loma Blvd",
    "area": "Midway",
    "city": "San Diego",
    "state": "CA",
    "zip": 92110,
    "phone": "(619) 304-7327",
    "latitude": 32.753737,
    "longitude": -117.223805,
    "procedure": "Extraction",
    "cost": 125,
    "website": "https://thedentalexpress.com/w-point-loma-blvd/",
    "fake_data": "Mock Data"
  },
  {
    "name": "Dental Express",
    "abbreviation": "Express",
    "address": "4110 W Point Loma Blvd",
    "area": "Midway",
    "city": "San Diego",
    "state": "CA",
    "zip": 92110,
    "phone": "(619) 304-7327",
    "latitude": 32.753737,
    "longitude": -117.223805,
    "procedure": "Root Canal",
    "cost": 785,
    "website": "https://thedentalexpress.com/w-point-loma-blvd/",
    "fake_data": "Mock Data"
  },
  {
    "name": "Dental Express",
    "abbreviation": "Express",
    "address": "4110 W Point Loma Blvd",
    "area": "Midway",
    "city": "San Diego",
    "state": "CA",
    "zip": 92110,
    "phone": "(619) 304-7327",
    "latitude": 32.753737,
    "longitude": -117.223805,
    "procedure": "Porcelain Crown",
    "cost": 950,
    "website": "https://thedentalexpress.com/w-point-loma-blvd/",
    "fake_data": "Mock Data"
  },
  {
    "name": "Bay View Dental",
    "abbreviation": "Bay View",
    "address": "3737 Moraga Ave",
    "area": "Clairemont",
    "city": "San Diego",
    "state": "CA",
    "zip": 92117,
    "phone": "(858) 274-4400",
    "latitude": 32.809311,
    "longitude": -117.210185,
    "procedure": "Adult Cleaning",
    "cost": 110,
    "website": "https://www.markemersondds.com/",
    "fake_data": "Mock Data"
  },
  {
    "name": "Bay View Dental",
    "abbreviation": "Bay View",
    "address": "3737 Moraga Ave",
    "area": "Clairemont",
    "city": "San Diego",
    "state": "CA",
    "zip": 92117,
    "phone": "(858) 274-4400",
    "latitude": 32.809311,
    "longitude": -117.210185,
    "procedure": "Composite Filling",
    "cost": 135,
    "website": "https://www.markemersondds.com/",
    "fake_data": "Mock Data"
  },
  {
    "name": "Bay View Dental",
    "abbreviation": "Bay View",
    "address": "3737 Moraga Ave",
    "area": "Clairemont",
    "city": "San Diego",
    "state": "CA",
    "zip": 92117,
    "phone": "(858) 274-4400",
    "latitude": 32.809311,
    "longitude": -117.210185,
    "procedure": "Extraction",
    "cost": 130,
    "website": "https://www.markemersondds.com/",
    "fake_data": "Mock Data"
  },
  {
    "name": "Bay View Dental",
    "abbreviation": "Bay View",
    "address": "3737 Moraga Ave",
    "area": "Clairemont",
    "city": "San Diego",
    "state": "CA",
    "zip": 92117,
    "phone": "(858) 274-4400",
    "latitude": 32.809311,
    "longitude": -117.210185,
    "procedure": "Root Canal",
    "cost": 780,
    "website": "https://www.markemersondds.com/",
    "fake_data": "Mock Data"
  },
  {
    "name": "Bay View Dental",
    "abbreviation": "Bay View",
    "address": "3737 Moraga Ave",
    "area": "Clairemont",
    "city": "San Diego",
    "state": "CA",
    "zip": 92117,
    "phone": "(858) 274-4400",
    "latitude": 32.809311,
    "longitude": -117.210185,
    "procedure": "Porcelain Crown",
    "cost": 1100,
    "website": "https://www.markemersondds.com/",
    "fake_data": "Mock Data"
  },
  {
    "name": "David Eshom, DDS",
    "abbreviation": "Eshom",
    "address": "8899 University Center Ln",
    "area": "University City",
    "city": "San Diego",
    "state": "CA",
    "zip": 92122,
    "phone": "(858) 201-4475",
    "latitude": 32.869946,
    "longitude": -117.227591,
    "procedure": "Adult Cleaning",
    "cost": 130,
    "website": "https://www.eshomdds.com/",
    "fake_data": "Actual Data"
  },
  {
    "name": "David Eshom, DDS",
    "abbreviation": "Eshom",
    "address": "8899 University Center Ln",
    "area": "University City",
    "city": "San Diego",
    "state": "CA",
    "zip": 92122,
    "phone": "(858) 201-4475",
    "latitude": 32.869946,
    "longitude": -117.227591,
    "procedure": "Composite Filling",
    "cost": 250,
    "website": "https://www.eshomdds.com/",
    "fake_data": "Actual Data"
  },
  {
    "name": "David Eshom, DDS",
    "abbreviation": "Eshom",
    "address": "8899 University Center Ln",
    "area": "University City",
    "city": "San Diego",
    "state": "CA",
    "zip": 92122,
    "phone": "(858) 201-4475",
    "latitude": 32.869946,
    "longitude": -117.227591,
    "procedure": "Extraction",
    "cost": 250,
    "website": "https://www.eshomdds.com/",
    "fake_data": "Actual Data"
  },
  {
    "name": "David Eshom, DDS",
    "abbreviation": "Eshom",
    "address": "8899 University Center Ln",
    "area": "University City",
    "city": "San Diego",
    "state": "CA",
    "zip": 92122,
    "phone": "(858) 201-4475",
    "latitude": 32.869946,
    "longitude": -117.227591,
    "procedure": "Root Canal",
    "cost": 850,
    "website": "https://www.eshomdds.com/",
    "fake_data": "Actual Data"
  },
  {
    "name": "David Eshom, DDS",
    "abbreviation": "Eshom",
    "address": "8899 University Center Ln",
    "area": "University City",
    "city": "San Diego",
    "state": "CA",
    "zip": 92122,
    "phone": "(858) 201-4475",
    "latitude": 32.869946,
    "longitude": -117.227591,
    "procedure": "Porcelain Crown",
    "cost": 1350,
    "website": "https://www.eshomdds.com/",
    "fake_data": "Actual Data"
  },
  {
    "name": "Dean Van Nguyen, DDS",
    "abbreviation": "Nguyen",
    "address": "4082 30th St",
    "area": "North Park",
    "city": "San Diego",
    "state": "CA",
    "zip": 92104,
    "phone": "(619) 283-6381",
    "latitude": 32.751887,
    "longitude": -117.130512,
    "procedure": "Adult Cleaning",
    "cost": 120,
    "website": "https://www.laserimplantdental.com/",
    "fake_data": "Mock Data"
  },
  {
    "name": "Dean Van Nguyen, DDS",
    "abbreviation": "Nguyen",
    "address": "4082 30th St",
    "area": "North Park",
    "city": "San Diego",
    "state": "CA",
    "zip": 92104,
    "phone": "(619) 283-6381",
    "latitude": 32.751887,
    "longitude": -117.130512,
    "procedure": "Composite Filling",
    "cost": 180,
    "website": "https://www.laserimplantdental.com/",
    "fake_data": "Mock Data"
  },
  {
    "name": "Dean Van Nguyen, DDS",
    "abbreviation": "Nguyen",
    "address": "4082 30th St",
    "area": "North Park",
    "city": "San Diego",
    "state": "CA",
    "zip": 92104,
    "phone": "(619) 283-6381",
    "latitude": 32.751887,
    "longitude": -117.130512,
    "procedure": "Extraction",
    "cost": 180,
    "website": "https://www.laserimplantdental.com/",
    "fake_data": "Mock Data"
  },
  {
    "name": "Dean Van Nguyen, DDS",
    "abbreviation": "Nguyen",
    "address": "4082 30th St",
    "area": "North Park",
    "city": "San Diego",
    "state": "CA",
    "zip": 92104,
    "phone": "(619) 283-6381",
    "latitude": 32.751887,
    "longitude": -117.130512,
    "procedure": "Root Canal",
    "cost": 810,
    "website": "https://www.laserimplantdental.com/",
    "fake_data": "Mock Data"
  },
  {
    "name": "Dean Van Nguyen, DDS",
    "abbreviation": "Nguyen",
    "address": "4082 30th St",
    "area": "North Park",
    "city": "San Diego",
    "state": "CA",
    "zip": 92104,
    "phone": "(619) 283-6381",
    "latitude": 32.751887,
    "longitude": -117.130512,
    "procedure": "Porcelain Crown",
    "cost": 1150,
    "website": "https://www.laserimplantdental.com/",
    "fake_data": "Mock Data"
  },
  {
    "name": "La Mesa Dental",
    "abbreviation": "La Mesa",
    "address": "7872 La Mesa Blvd",
    "area": "La Mesa",
    "city": "San Diego",
    "state": "CA",
    "zip": 91942,
    "phone": "(619) 464-1211",
    "latitude": 32.767208,
    "longitude": -117.027936,
    "procedure": "Adult Cleaning",
    "cost": 100,
    "website": "http://www.lamesadental.com/",
    "fake_data": "Mock Data"
  },
  {
    "name": "La Mesa Dental",
    "abbreviation": "La Mesa",
    "address": "7872 La Mesa Blvd",
    "area": "La Mesa",
    "city": "San Diego",
    "state": "CA",
    "zip": 91942,
    "phone": "(619) 464-1211",
    "latitude": 32.767208,
    "longitude": -117.027936,
    "procedure": "Composite Filling",
    "cost": 160,
    "website": "http://www.lamesadental.com/",
    "fake_data": "Mock Data"
  },
  {
    "name": "La Mesa Dental",
    "abbreviation": "La Mesa",
    "address": "7872 La Mesa Blvd",
    "area": "La Mesa",
    "city": "San Diego",
    "state": "CA",
    "zip": 91942,
    "phone": "(619) 464-1211",
    "latitude": 32.767208,
    "longitude": -117.027936,
    "procedure": "Extraction",
    "cost": 170,
    "website": "http://www.lamesadental.com/",
    "fake_data": "Mock Data"
  },
  {
    "name": "La Mesa Dental",
    "abbreviation": "La Mesa",
    "address": "7872 La Mesa Blvd",
    "area": "La Mesa",
    "city": "San Diego",
    "state": "CA",
    "zip": 91942,
    "phone": "(619) 464-1211",
    "latitude": 32.767208,
    "longitude": -117.027936,
    "procedure": "Root Canal",
    "cost": 795,
    "website": "http://www.lamesadental.com/",
    "fake_data": "Mock Data"
  },
  {
    "name": "La Mesa Dental",
    "abbreviation": "La Mesa",
    "address": "7872 La Mesa Blvd",
    "area": "La Mesa",
    "city": "San Diego",
    "state": "CA",
    "zip": 91942,
    "phone": "(619) 464-1211",
    "latitude": 32.767208,
    "longitude": -117.027936,
    "procedure": "Porcelain Crown",
    "cost": 1010,
    "website": "http://www.lamesadental.com/",
    "fake_data": "Mock Data"
  },
  {
    "name": "Mission Family Dental",
    "abbreviation": "Mission",
    "address": "5995 Mission Gorge Rd",
    "area": "Grantville",
    "city": "San Diego",
    "state": "CA",
    "zip": 92120,
    "phone": "(619) 280-6500",
    "latitude": 32.78275,
    "longitude": -117.098264,
    "procedure": "Adult Cleaning",
    "cost": 107,
    "website": "http://sandiegoperfectsmiles.com/",
    "fake_data": "Mock Data"
  },
  {
    "name": "Mission Family Dental",
    "abbreviation": "Mission",
    "address": "5995 Mission Gorge Rd",
    "area": "Grantville",
    "city": "San Diego",
    "state": "CA",
    "zip": 92120,
    "phone": "(619) 280-6500",
    "latitude": 32.78275,
    "longitude": -117.098264,
    "procedure": "Composite Filling",
    "cost": 175,
    "website": "http://sandiegoperfectsmiles.com/",
    "fake_data": "Mock Data"
  },
  {
    "name": "Mission Family Dental",
    "abbreviation": "Mission",
    "address": "5995 Mission Gorge Rd",
    "area": "Grantville",
    "city": "San Diego",
    "state": "CA",
    "zip": 92120,
    "phone": "(619) 280-6500",
    "latitude": 32.78275,
    "longitude": -117.098264,
    "procedure": "Extraction",
    "cost": 155,
    "website": "http://sandiegoperfectsmiles.com/",
    "fake_data": "Mock Data"
  },
  {
    "name": "Mission Family Dental",
    "abbreviation": "Mission",
    "address": "5995 Mission Gorge Rd",
    "area": "Grantville",
    "city": "San Diego",
    "state": "CA",
    "zip": 92120,
    "phone": "(619) 280-6500",
    "latitude": 32.78275,
    "longitude": -117.098264,
    "procedure": "Root Canal",
    "cost": 805,
    "website": "http://sandiegoperfectsmiles.com/",
    "fake_data": "Mock Data"
  },
  {
    "name": "Mission Family Dental",
    "abbreviation": "Mission",
    "address": "5995 Mission Gorge Rd",
    "area": "Grantville",
    "city": "San Diego",
    "state": "CA",
    "zip": 92120,
    "phone": "(619) 280-6500",
    "latitude": 32.78275,
    "longitude": -117.098264,
    "procedure": "Porcelain Crown",
    "cost": 965,
    "website": "http://sandiegoperfectsmiles.com/",
    "fake_data": "Mock Data"
  },
  {
    "name": "Linda Vista Dentistry",
    "abbreviation": "Linda Vista",
    "address": "7440 Beagle St",
    "area": "Clairemont",
    "city": "San Diego",
    "state": "CA",
    "zip": 92111,
    "phone": "(858) 384-2083",
    "latitude": 32.807663,
    "longitude": -117.160985,
    "procedure": "Adult Cleaning",
    "cost": 110,
    "website": "N/A",
    "fake_data": "Mock Data"
  },
  {
    "name": "Linda Vista Dentistry",
    "abbreviation": "Linda Vista",
    "address": "7440 Beagle St",
    "area": "Clairemont",
    "city": "San Diego",
    "state": "CA",
    "zip": 92111,
    "phone": "(858) 384-2083",
    "latitude": 32.807663,
    "longitude": -117.160985,
    "procedure": "Composite Filling",
    "cost": 150,
    "website": "N/A",
    "fake_data": "Mock Data"
  },
  {
    "name": "Linda Vista Dentistry",
    "abbreviation": "Linda Vista",
    "address": "7440 Beagle St",
    "area": "Clairemont",
    "city": "San Diego",
    "state": "CA",
    "zip": 92111,
    "phone": "(858) 384-2083",
    "latitude": 32.807663,
    "longitude": -117.160985,
    "procedure": "Extraction",
    "cost": 160,
    "website": "N/A",
    "fake_data": "Mock Data"
  },
  {
    "name": "Linda Vista Dentistry",
    "abbreviation": "Linda Vista",
    "address": "7440 Beagle St",
    "area": "Clairemont",
    "city": "San Diego",
    "state": "CA",
    "zip": 92111,
    "phone": "(858) 384-2083",
    "latitude": 32.807663,
    "longitude": -117.160985,
    "procedure": "Root Canal",
    "cost": 810,
    "website": "N/A",
    "fake_data": "Mock Data"
  },
  {
    "name": "Linda Vista Dentistry",
    "abbreviation": "Linda Vista",
    "address": "7440 Beagle St",
    "area": "Clairemont",
    "city": "San Diego",
    "state": "CA",
    "zip": 92111,
    "phone": "(858) 384-2083",
    "latitude": 32.807663,
    "longitude": -117.160985,
    "procedure": "Porcelain Crown",
    "cost": 890,
    "website": "N/A",
    "fake_data": "Mock Data"
  },
  {
    "name": "Mesa Dental",
    "abbreviation": "Mesa",
    "address": "7625 Mesa College Dr",
    "area": "Clairemont",
    "city": "San Diego",
    "state": "CA",
    "zip": 92111,
    "phone": "(858) 877-9540",
    "latitude": 32.800802,
    "longitude": -117.157321,
    "procedure": "Adult Cleaning",
    "cost": 100,
    "website": "https://mesadentalsd.com/",
    "fake_data": "Mock Data"
  },
  {
    "name": "Mesa Dental",
    "abbreviation": "Mesa",
    "address": "7625 Mesa College Dr",
    "area": "Clairemont",
    "city": "San Diego",
    "state": "CA",
    "zip": 92111,
    "phone": "(858) 877-9540",
    "latitude": 32.800802,
    "longitude": -117.157321,
    "procedure": "Composite Filling",
    "cost": 130,
    "website": "https://mesadentalsd.com/",
    "fake_data": "Mock Data"
  },
  {
    "name": "Mesa Dental",
    "abbreviation": "Mesa",
    "address": "7625 Mesa College Dr",
    "area": "Clairemont",
    "city": "San Diego",
    "state": "CA",
    "zip": 92111,
    "phone": "(858) 877-9540",
    "latitude": 32.800802,
    "longitude": -117.157321,
    "procedure": "Extraction",
    "cost": 150,
    "website": "https://mesadentalsd.com/",
    "fake_data": "Mock Data"
  },
  {
    "name": "Mesa Dental",
    "abbreviation": "Mesa",
    "address": "7625 Mesa College Dr",
    "area": "Clairemont",
    "city": "San Diego",
    "state": "CA",
    "zip": 92111,
    "phone": "(858) 877-9540",
    "latitude": 32.800802,
    "longitude": -117.157321,
    "procedure": "Root Canal",
    "cost": 750,
    "website": "https://mesadentalsd.com/",
    "fake_data": "Mock Data"
  },
  {
    "name": "Mesa Dental",
    "abbreviation": "Mesa",
    "address": "7625 Mesa College Dr",
    "area": "Clairemont",
    "city": "San Diego",
    "state": "CA",
    "zip": 92111,
    "phone": "(858) 877-9540",
    "latitude": 32.800802,
    "longitude": -117.157321,
    "procedure": "Porcelain Crown",
    "cost": 1010,
    "website": "https://mesadentalsd.com/",
    "fake_data": "Mock Data"
  }
]