[
  {
    "name": "San Diego Smile Dentistry",
    "abbreviation": "SD Smile",
    "address": "7710 Balboa Ave",
    "area": "Kearny Mesa",
    "city": "San Diego",
    "state": "CA",
    "zip": 92111,
    "phone": "(619) 737-6453",
    "latitude": 32.82225,
    "longitude": -117.157913,
    "procedures": {
      "adult_cleaning": 105,
      "composite_filling": 140,
      "extraction": 110,
      "root_canal": 725,
      "porcelain_crown": 850
    },
    "website": "https://sd-smile.com/",
    "fake_data": "*"
  },
  {
    "name": "Great Smile Dental",
    "abbreviation": "Great Smile",
    "address": "5210 Balboa Ave",
    "area": "Clairemont",
    "city": "San Diego",
    "state": "CA",
    "zip": 92117,
    "phone": "(858) 598-5842",
    "latitude": 32.81897,
    "longitude": -117.183968,
    "procedures": {
      "adult_cleaning": 95,
      "composite_filling": 120,
      "extraction": 110,
      "root_canal": 765,
      "porcelain_crown": 1105
    },
    "website": "https://great-smile-dental-orthodontics-and-periodontics.business.site/",
    "fake_data": "*"
  },
  {
    "name": "Dental Express",
    "abbreviation": "Express",
    "address": "4110 W Point Loma Blvd",
    "area": "Midway",
    "city": "San Diego",
    "state": "CA",
    "zip": 92110,
    "phone": "(619) 304-7327",
    "latitude": 32.753737,
    "longitude": -117.223805,
    "procedures": {
      "adult_cleaning": 100,
      "composite_filling": 120,
      "extraction": 125,
      "root_canal": 785,
      "porcelain_crown": 950
    },
    "website": "https://thedentalexpress.com/w-point-loma-blvd/",
    "fake_data": "*"
  },
  {
    "name": "Bay View Dental",
    "abbreviation": "Bay View",
    "address": "3737 Moraga Ave",
    "area": "Clairemont",
    "city": "San Diego",
    "state": "CA",
    "zip": 92117,
    "phone": "(858) 274-4400",
    "latitude": 32.809311,
    "longitude": -117.210185,
    "procedures": {
      "adult_cleaning": 110,
      "composite_filling": 135,
      "extraction": 130,
      "root_canal": 780,
      "porcelain_crown": 1100
    },
    "website": "https://www.markemersondds.com/",
    "fake_data": "*"
  },
  {
    "name": "David Eshom, DDS",
    "abbreviation": "Eshom",
    "address": "8899 University Center Ln",
    "area": "University City",
    "city": "San Diego",
    "state": "CA",
    "zip": 92122,
    "phone": "(858) 201-4475",
    "latitude": 32.869946,
    "longitude": -117.227591,
    "procedures": {
      "adult_cleaning": 130,
      "composite_filling": 250,
      "extraction": 250,
      "root_canal": 850,
      "porcelain_crown": 1350
    },
    "website": "https://www.eshomdds.com/",
    "fake_data": ""
  },
  {
    "name": "Dean Van Nguyen, DDS",
    "abbreviation": "Nguyen",
    "address": "4082 30th St",
    "area": "North Park",
    "city": "San Diego",
    "state": "CA",
    "zip": 92104,
    "phone": "(619) 283-6381",
    "latitude": 32.751887,
    "longitude": -117.130512,
    "procedures": {
      "adult_cleaning": 120,
      "composite_filling": 180,
      "extraction": 180,
      "root_canal": 810,
      "porcelain_crown": 1150
    },
    "website": "https://www.laserimplantdental.com/",
    "fake_data": "*"
  },
  {
    "name": "La Mesa Dental",
    "abbreviation": "La Mesa",
    "address": "7872 La Mesa Blvd",
    "area": "La Mesa",
    "city": "La Mesa",
    "state": "CA",
    "zip": 91942,
    "phone": "(619) 464-1211",
    "latitude": 32.767208,
    "longitude": -117.027936,
    "procedures": {
      "adult_cleaning": 100,
      "composite_filling": 160,
      "extraction": 170,
      "root_canal": 795,
      "porcelain_crown": 1010
    },
    "website": "http://www.lamesadental.com/",
    "fake_data": "*"
  },
  {
    "name": "Mission Family Dental",
    "abbreviation": "Mission",
    "address": "5995 Mission Gorge Rd",
    "area": "Grantville",
    "city": "San Diego",
    "state": "CA",
    "zip": 92120,
    "phone": "(619) 280-6500",
    "latitude": 32.78275,
    "longitude": -117.098264,
    "procedures": {
      "adult_cleaning": 107,
      "composite_filling": 175,
      "extraction": 155,
      "root_canal": 805,
      "porcelain_crown": 965
    },
    "website": "http://sandiegoperfectsmiles.com/",
    "fake_data": "*"
  },
  {
    "name": "Linda Vista Dentistry",
    "abbreviation": "Linda Vista",
    "address": "7440 Beagle St",
    "area": "Clairemont",
    "city": "San Diego",
    "state": "CA",
    "zip": 92111,
    "phone": "(858) 384-2083",
    "latitude": 32.807663,
    "longitude": -117.160985,
    "procedures": {
      "adult_cleaning": 110,
      "composite_filling": 150,
      "extraction": 160,
      "root_canal": 810,
      "porcelain_crown": 890
    },
    "website": "N/A",
    "fake_data": "*"
  },
  {
    "name": "Mesa Dental",
    "abbreviation": "Mesa",
    "address": "7625 Mesa College Dr",
    "area": "Clairemont",
    "city": "San Diego",
    "state": "CA",
    "zip": 92111,
    "phone": "(858) 877-9540",
    "latitude": 32.800802,
    "longitude": -117.157321,
    "procedures": {
      "adult_cleaning": 100,
      "composite_filling": 130,
      "extraction": 150,
      "root_canal": 750,
      "porcelain_crown": 1010
    },
    "website": "https://mesadentalsd.com/",
    "fake_data": "*"
  },
  {
    "name": "Smile Builders",
    "abbreviation": "Smile Builders",
    "address": "Av Revolucion 993",
    "area": "Zona Centro",
    "city": "Tijuana",
    "state": "Baja California",
    "zip": 22000,
    "phone": "(619) 259-6751",
    "latitude": 32.526848,
    "longitude": -117.036049,
    "procedures": {
      "adult_cleaning": 45,
      "composite_filling": 75,
      "extraction": 80,
      "root_canal": 400,
      "porcelain_crown": 550
    },
    "website": "https://smilebuilders.net/",
    "fake_data": ""
  },
  {
    "name": "Dr Ignacio de la Vega",
    "abbreviation": "Vega",
    "address": "Calle Emiliano Zapata 1717",
    "area": "Zona Centro",
    "city": "Tijuana",
    "state": "Baja California",
    "zip": 22000,
    "phone": "(619) 399-3538",
    "latitude": 32.480226,
    "longitude": -117.015894,
    "procedures": {
      "adult_cleaning": 40,
      "composite_filling": 65,
      "extraction": 85,
      "root_canal": 260,
      "porcelain_crown": 475
    },
    "website": "http://www.drdelavega.com/",
    "fake_data": "*"
  },
  {
    "name": "Advanced Smiles Dentistry",
    "abbreviation": "Adv Smiles",
    "address": "German Gedovius 10489",
    "area": "Zona Rio",
    "city": "Tijuana",
    "state": "Baja California",
    "zip": 22010,
    "phone": "(619) 488-1557",
    "latitude": 32.519606,
    "longitude": -117.011157,
    "procedures": {
      "adult_cleaning": 40,
      "composite_filling": 40,
      "extraction": 90,
      "root_canal": 250,
      "porcelain_crown": 450
    },
    "website": "https://advancedsmilesdentistry.com/",
    "fake_data": ""
  },
  {
    "name": "I Love My Dentist",
    "abbreviation": "Love",
    "address": "Av Revolucion 868",
    "area": "Zona Centro",
    "city": "Tijuana",
    "state": "Baja California",
    "zip": 22000,
    "phone": "(619) 452-2823",
    "latitude": 32.526848,
    "longitude": -117.036049,
    "procedures": {
      "adult_cleaning": 45,
      "composite_filling": 75,
      "extraction": 80,
      "root_canal": 400,
      "porcelain_crown": 395
    },
    "website": "https://ilovemydentist.com.mx/",
    "fake_data": ""
  },
  {
    "name": "Washington Dental Clinic",
    "abbreviation": "Washington",
    "address": "Av Revolucion 1673",
    "area": "Zona Centro",
    "city": "Tijuana",
    "state": "Baja California",
    "zip": 22000,
    "phone": "(619) 308-7098",
    "latitude": 32.526848,
    "longitude": -117.036049,
    "procedures": {
      "adult_cleaning": 50,
      "composite_filling": 40,
      "extraction": 40,
      "root_canal": 275,
      "porcelain_crown": 275
    },
    "website": "http://washingtondentalclinics.com/",
    "fake_data": ""
  },
  {
    "name": "Liberty Dental Clinic",
    "abbreviation": "Liberty",
    "address": "Calle Benito Juarez 2da 2273",
    "area": "Zona Centro",
    "city": "Tijuana",
    "state": "Baja California",
    "zip": 22000,
    "phone": "(619) 319-8892",
    "latitude": 32.535822,
    "longitude": -117.032179,
    "procedures": {
      "adult_cleaning": 40,
      "composite_filling": 39,
      "extraction": 45,
      "root_canal": 250,
      "porcelain_crown": 225
    },
    "website": "http://libertydentaltijuana.com/",
    "fake_data": ""
  },
  {
    "name": "Dental Alvarez",
    "abbreviation": "Alvarez",
    "address": "Av Mision de Loreto 3045",
    "area": "Zona Rio",
    "city": "Tijuana",
    "state": "Baja California",
    "zip": 22320,
    "phone": "(619) 734-0233",
    "latitude": 32.52055,
    "longitude": -116.973236,
    "procedures": {
      "adult_cleaning": 50,
      "composite_filling": 60,
      "extraction": 60,
      "root_canal": 275,
      "porcelain_crown": 300
    },
    "website": "https://dentalalvarez.com/",
    "fake_data": ""
  },
  {
    "name": "Tijuana Clinic for Cosmetic Dentistry",
    "abbreviation": "TJ Clinic",
    "address": "Dr Atl 2084",
    "area": "Zona Rio",
    "city": "Tijuana",
    "state": "Baja California",
    "zip": 22010,
    "phone": "(619) 971-2297",
    "latitude": 32.524827,
    "longitude": -117.014099,
    "procedures": {
      "adult_cleaning": 40,
      "composite_filling": 50,
      "extraction": 80,
      "root_canal": 300,
      "porcelain_crown": 350
    },
    "website": "https://www.tccdentistry.com/",
    "fake_data": "*"
  },
  {
    "name": "Odontologia Integral de Mexico",
    "abbreviation": "Odontologia",
    "address": "Josefa Ortiz de Dominguez 1310",
    "area": "Zona Rio",
    "city": "Tijuana",
    "state": "Baja California",
    "zip": 22010,
    "phone": "6646829464",
    "latitude": 32.522908,
    "longitude": -117.045351,
    "procedures": {
      "adult_cleaning": 45,
      "composite_filling": 45,
      "extraction": 75,
      "root_canal": 275,
      "porcelain_crown": 400
    },
    "website": "http://www.bajadentistry.com/",
    "fake_data": "*"
  },
  {
    "name": "American Bio-Dental Center",
    "abbreviation": "Bio-Dental",
    "address": "Blvd Agua Caliente 4558",
    "area": "La Chapu",
    "city": "Tijuana",
    "state": "Baja California",
    "zip": 22420,
    "phone": "(877) 207-0824",
    "latitude": 32.512397,
    "longitude": -117.002315,
    "procedures": {
      "adult_cleaning": 35,
      "composite_filling": 75,
      "extraction": 200,
      "root_canal": 0,
      "porcelain_crown": 550
    },
    "website": "https://americanbiodental.com/",
    "fake_data": ""
  }
]