[
  {
    "name": "San Diego Smile Dentistry",
    "abbreviation": "SD Smile",
    "address": "7710 Balboa Ave",
    "area": "Kearny Mesa",
    "city": "San Diego",
    "state": "CA",
    "zip": 92111,
    "phone": "(619) 737-6453",
    "latitude": 32.82225,
    "longitude": -117.157913,
    "adult_cleaning": 105,
    "composite_filling": 140,
    "extraction": 110,
    "root_canal": 725,
    "porcelain_crown": 850,
    "website": "https://sd-smile.com/",
    "fake_data": "*"
  },
  {
    "name": "Great Smile Dental",
    "abbreviation": "Great Smile",
    "address": "5210 Balboa Ave",
    "area": "Clairemont",
    "city": "San Diego",
    "state": "CA",
    "zip": 92117,
    "phone": "(858) 598-5842",
    "latitude": 32.81897,
    "longitude": -117.183968,
    "adult_cleaning": 95,
    "composite_filling": 120,
    "extraction": 110,
    "root_canal": 765,
    "porcelain_crown": 1105,
    "website": "https://great-smile-dental-orthodontics-and-periodontics.business.site/",
    "fake_data": "*"
  },
  {
    "name": "Dental Express",
    "abbreviation": "Express",
    "address": "4110 W Point Loma Blvd",
    "area": "Midway",
    "city": "San Diego",
    "state": "CA",
    "zip": 92110,
    "phone": "(619) 304-7327",
    "latitude": 32.753737,
    "longitude": -117.223805,
    "adult_cleaning": 100,
    "composite_filling": 120,
    "extraction": 125,
    "root_canal": 785,
    "porcelain_crown": 950,
    "website": "https://thedentalexpress.com/w-point-loma-blvd/",
    "fake_data": "*"
  },
  {
    "name": "Bay View Dental",
    "abbreviation": "Bay View",
    "address": "3737 Moraga Ave",
    "area": "Clairemont",
    "city": "San Diego",
    "state": "CA",
    "zip": 92117,
    "phone": "(858) 274-4400",
    "latitude": 32.809311,
    "longitude": -117.210185,
    "adult_cleaning": 110,
    "composite_filling": 135,
    "extraction": 130,
    "root_canal": 780,
    "porcelain_crown": 1100,
    "website": "https://www.markemersondds.com/",
    "fake_data": "*"
  },
  {
    "name": "David Eshom, DDS",
    "abbreviation": "Eshom",
    "address": "8899 University Center Ln",
    "area": "University City",
    "city": "San Diego",
    "state": "CA",
    "zip": 92122,
    "phone": "(858) 201-4475",
    "latitude": 32.869946,
    "longitude": -117.227591,
    "adult_cleaning": 130,
    "composite_filling": 250,
    "extraction": 250,
    "root_canal": 850,
    "porcelain_crown": 1350,
    "website": "https://www.eshomdds.com/",
    "fake_data": ""
  },
  {
    "name": "Dean Van Nguyen, DDS",
    "abbreviation": "Nguyen",
    "address": "4082 30th St",
    "area": "North Park",
    "city": "San Diego",
    "state": "CA",
    "zip": 92104,
    "phone": "(619) 283-6381",
    "latitude": 32.751887,
    "longitude": -117.130512,
    "adult_cleaning": 120,
    "composite_filling": 180,
    "extraction": 180,
    "root_canal": 810,
    "porcelain_crown": 1150,
    "website": "https://www.laserimplantdental.com/",
    "fake_data": "*"
  },
  {
    "name": "La Mesa Dental",
    "abbreviation": "La Mesa",
    "address": "7872 La Mesa Blvd",
    "area": "La Mesa",
    "city": "La Mesa",
    "state": "CA",
    "zip": 91942,
    "phone": "(619) 464-1211",
    "latitude": 32.767208,
    "longitude": -117.027936,
    "adult_cleaning": 100,
    "composite_filling": 160,
    "extraction": 170,
    "root_canal": 795,
    "porcelain_crown": 1010,
    "website": "http://www.lamesadental.com/",
    "fake_data": "*"
  },
  {
    "name": "Mission Family Dental",
    "abbreviation": "Mission",
    "address": "5995 Mission Gorge Rd",
    "area": "Grantville",
    "city": "San Diego",
    "state": "CA",
    "zip": 92120,
    "phone": "(619) 280-6500",
    "latitude": 32.78275,
    "longitude": -117.098264,
    "adult_cleaning": 107,
    "composite_filling": 175,
    "extraction": 155,
    "root_canal": 805,
    "porcelain_crown": 965,
    "website": "http://sandiegoperfectsmiles.com/",
    "fake_data": "*"
  },
  {
    "name": "Linda Vista Dentistry",
    "abbreviation": "Linda Vista",
    "address": "7440 Beagle St",
    "area": "Clairemont",
    "city": "San Diego",
    "state": "CA",
    "zip": 92111,
    "phone": "(858) 384-2083",
    "latitude": 32.807663,
    "longitude": -117.160985,
    "adult_cleaning": 110,
    "composite_filling": 150,
    "extraction": 160,
    "root_canal": 810,
    "porcelain_crown": 890,
    "website": "N/A",
    "fake_data": "*"
  },
  {
    "name": "Mesa Dental",
    "abbreviation": "Mesa",
    "address": "7625 Mesa College Dr",
    "area": "Clairemont",
    "city": "San Diego",
    "state": "CA",
    "zip": 92111,
    "phone": "(858) 877-9540",
    "latitude": 32.800802,
    "longitude": -117.157321,
    "adult_cleaning": 100,
    "composite_filling": 130,
    "extraction": 150,
    "root_canal": 750,
    "porcelain_crown": 1010,
    "website": "https://mesadentalsd.com/",
    "fake_data": "*"
  }
]