[
  {
    "name": "Smile Builders",
    "abbreviation": "Smile Builders",
    "address": "Av Revolucion 993",
    "area": "Zona Centro",
    "city": "Tijuana",
    "state": "Baja California",
    "zip": 22000,
    "phone": "(619) 259-6751",
    "latitude": 32.526848,
    "longitude": -117.036049,
    "adult_cleaning": 45,
    "composite_filling": 75,
    "extraction": 80,
    "root_canal": 400,
    "porcelain_crown": 550,
    "website": "https://smilebuilders.net/",
    "fake_data": ""
  },
  {
    "name": "Dr Ignacio de la Vega",
    "abbreviation": "Vega",
    "address": "Calle Emiliano Zapata 1717",
    "area": "Zona Centro",
    "city": "Tijuana",
    "state": "Baja California",
    "zip": 22000,
    "phone": "(619) 399-3538",
    "latitude": 32.480226,
    "longitude": -117.015894,
    "adult_cleaning": 40,
    "composite_filling": 65,
    "extraction": 85,
    "root_canal": 260,
    "porcelain_crown": 475,
    "website": "http://www.drdelavega.com/",
    "fake_data": "*"
  },
  {
    "name": "Advanced Smiles Dentistry",
    "abbreviation": "Adv Smiles",
    "address": "German Gedovius 10489",
    "area": "Zona Rio",
    "city": "Tijuana",
    "state": "Baja California",
    "zip": 22010,
    "phone": "(619) 488-1557",
    "latitude": 32.519606,
    "longitude": -117.011157,
    "adult_cleaning": 40,
    "composite_filling": 40,
    "extraction": 90,
    "root_canal": 250,
    "porcelain_crown": 450,
    "website": "https://advancedsmilesdentistry.com/",
    "fake_data": ""
  },
  {
    "name": "I Love My Dentist",
    "abbreviation": "Love",
    "address": "Av Revolucion 868",
    "area": "Zona Centro",
    "city": "Tijuana",
    "state": "Baja California",
    "zip": 22000,
    "phone": "(619) 452-2823",
    "latitude": 32.526848,
    "longitude": -117.036049,
    "adult_cleaning": 45,
    "composite_filling": 75,
    "extraction": 80,
    "root_canal": 400,
    "porcelain_crown": 395,
    "website": "https://ilovemydentist.com.mx/",
    "fake_data": ""
  },
  {
    "name": "Washington Dental Clinic",
    "abbreviation": "Washington",
    "address": "Av Revolucion 1673",
    "area": "Zona Centro",
    "city": "Tijuana",
    "state": "Baja California",
    "zip": 22000,
    "phone": "(619) 308-7098",
    "latitude": 32.526848,
    "longitude": -117.036049,
    "adult_cleaning": 50,
    "composite_filling": 40,
    "extraction": 40,
    "root_canal": 275,
    "porcelain_crown": 275,
    "website": "http://washingtondentalclinics.com/",
    "fake_data": ""
  },
  {
    "name": "Liberty Dental Clinic",
    "abbreviation": "Liberty",
    "address": "Calle Benito Juarez 2da 2273",
    "area": "Zona Centro",
    "city": "Tijuana",
    "state": "Baja California",
    "zip": 22000,
    "phone": "(619) 319-8892",
    "latitude": 32.535822,
    "longitude": -117.032179,
    "adult_cleaning": 40,
    "composite_filling": 39,
    "extraction": 45,
    "root_canal": 250,
    "porcelain_crown": 225,
    "website": "http://libertydentaltijuana.com/",
    "fake_data": ""
  },
  {
    "name": "Dental Alvarez",
    "abbreviation": "Alvarez",
    "address": "Av Mision de Loreto 3045",
    "area": "Zona Rio",
    "city": "Tijuana",
    "state": "Baja California",
    "zip": 22320,
    "phone": "(619) 734-0233",
    "latitude": 32.52055,
    "longitude": -116.973236,
    "adult_cleaning": 50,
    "composite_filling": 60,
    "extraction": 60,
    "root_canal": 275,
    "porcelain_crown": 300,
    "website": "https://dentalalvarez.com/",
    "fake_data": ""
  },
  {
    "name": "Tijuana Clinic for Cosmetic Dentistry",
    "abbreviation": "TJ Clinic",
    "address": "Dr Atl 2084",
    "area": "Zona Rio",
    "city": "Tijuana",
    "state": "Baja California",
    "zip": 22010,
    "phone": "(619) 971-2297",
    "latitude": 32.524827,
    "longitude": -117.014099,
    "adult_cleaning": 40,
    "composite_filling": 50,
    "extraction": 80,
    "root_canal": 300,
    "porcelain_crown": 350,
    "website": "https://www.tccdentistry.com/",
    "fake_data": "*"
  },
  {
    "name": "Odontologia Integral de Mexico",
    "abbreviation": "Odontologia",
    "address": "Josefa Ortiz de Dominguez 1310",
    "area": "Zona Rio",
    "city": "Tijuana",
    "state": "Baja California",
    "zip": 22010,
    "phone": "6646829464",
    "latitude": 32.522908,
    "longitude": -117.045351,
    "adult_cleaning": 45,
    "composite_filling": 45,
    "extraction": 75,
    "root_canal": 275,
    "porcelain_crown": 400,
    "website": "http://www.bajadentistry.com/",
    "fake_data": "*"
  },
  {
    "name": "American Bio-Dental Center",
    "abbreviation": "Bio-Dental",
    "address": "Blvd Agua Caliente 4558",
    "area": "La Chapu",
    "city": "Tijuana",
    "state": "Baja California",
    "zip": 22420,
    "phone": "(877) 207-0824",
    "latitude": 32.512397,
    "longitude": -117.002315,
    "adult_cleaning": 35,
    "composite_filling": 75,
    "extraction": 200,
    "root_canal": 0,
    "porcelain_crown": 550,
    "website": "https://americanbiodental.com/",
    "fake_data": ""
  }
]