[
  {
    "name": "San Diego Smile Dentistry",
    "abbreviation": "SD Smile",
    "address": "7710 Balboa Ave",
    "area": "Kearny Mesa",
    "city": "San Diego",
    "state": "CA",
    "zip": 92111,
    "phone": "(619) 737-6453",
    "latitude": 32.82225,
    "longitude": -117.157913,
    "procedure": "adult_cleaning",
    "cost": 105,
    "website": "https://sd-smile.com/",
    "fake_data": "fake_data"
  },
  {
    "name": "San Diego Smile Dentistry",
    "abbreviation": "SD Smile",
    "address": "7710 Balboa Ave",
    "area": "Kearny Mesa",
    "city": "San Diego",
    "state": "CA",
    "zip": 92111,
    "phone": "(619) 737-6453",
    "latitude": 32.82225,
    "longitude": -117.157913,
    "procedure": "composite_filling",
    "cost": 140,
    "website": "https://sd-smile.com/",
    "fake_data": "fake_data"
  },
  {
    "name": "San Diego Smile Dentistry",
    "abbreviation": "SD Smile",
    "address": "7710 Balboa Ave",
    "area": "Kearny Mesa",
    "city": "San Diego",
    "state": "CA",
    "zip": 92111,
    "phone": "(619) 737-6453",
    "latitude": 32.82225,
    "longitude": -117.157913,
    "procedure": "extraction",
    "cost": 110,
    "website": "https://sd-smile.com/",
    "fake_data": "fake_data"
  },
  {
    "name": "San Diego Smile Dentistry",
    "abbreviation": "SD Smile",
    "address": "7710 Balboa Ave",
    "area": "Kearny Mesa",
    "city": "San Diego",
    "state": "CA",
    "zip": 92111,
    "phone": "(619) 737-6453",
    "latitude": 32.82225,
    "longitude": -117.157913,
    "procedure": "root_canal",
    "cost": 725,
    "website": "https://sd-smile.com/",
    "fake_data": "fake_data"
  },
  {
    "name": "San Diego Smile Dentistry",
    "abbreviation": "SD Smile",
    "address": "7710 Balboa Ave",
    "area": "Kearny Mesa",
    "city": "San Diego",
    "state": "CA",
    "zip": 92111,
    "phone": "(619) 737-6453",
    "latitude": 32.82225,
    "longitude": -117.157913,
    "procedure": "porcelain_crown",
    "cost": 850,
    "website": "https://sd-smile.com/",
    "fake_data": "fake_data"
  },
  {
    "name": "Great Smile Dental",
    "abbreviation": "Great Smile",
    "address": "5210 Balboa Ave",
    "area": "Clairemont",
    "city": "San Diego",
    "state": "CA",
    "zip": 92117,
    "phone": "(858) 598-5842",
    "latitude": 32.81897,
    "longitude": -117.183968,
    "procedure": "adult_cleaning",
    "cost": 95,
    "website": "https://great-smile-dental-orthodontics-and-periodontics.business.site/",
    "fake_data": "fake_data"
  },
  {
    "name": "Great Smile Dental",
    "abbreviation": "Great Smile",
    "address": "5210 Balboa Ave",
    "area": "Clairemont",
    "city": "San Diego",
    "state": "CA",
    "zip": 92117,
    "phone": "(858) 598-5842",
    "latitude": 32.81897,
    "longitude": -117.183968,
    "procedure": "composite_filling",
    "cost": 120,
    "website": "https://great-smile-dental-orthodontics-and-periodontics.business.site/",
    "fake_data": "fake_data"
  },
  {
    "name": "Great Smile Dental",
    "abbreviation": "Great Smile",
    "address": "5210 Balboa Ave",
    "area": "Clairemont",
    "city": "San Diego",
    "state": "CA",
    "zip": 92117,
    "phone": "(858) 598-5842",
    "latitude": 32.81897,
    "longitude": -117.183968,
    "procedure": "extraction",
    "cost": 110,
    "website": "https://great-smile-dental-orthodontics-and-periodontics.business.site/",
    "fake_data": "fake_data"
  },
  {
    "name": "Great Smile Dental",
    "abbreviation": "Great Smile",
    "address": "5210 Balboa Ave",
    "area": "Clairemont",
    "city": "San Diego",
    "state": "CA",
    "zip": 92117,
    "phone": "(858) 598-5842",
    "latitude": 32.81897,
    "longitude": -117.183968,
    "procedure": "root_canal",
    "cost": 765,
    "website": "https://great-smile-dental-orthodontics-and-periodontics.business.site/",
    "fake_data": "fake_data"
  },
  {
    "name": "Great Smile Dental",
    "abbreviation": "Great Smile",
    "address": "5210 Balboa Ave",
    "area": "Clairemont",
    "city": "San Diego",
    "state": "CA",
    "zip": 92117,
    "phone": "(858) 598-5842",
    "latitude": 32.81897,
    "longitude": -117.183968,
    "procedure": "porcelain_crown",
    "cost": 1105,
    "website": "https://great-smile-dental-orthodontics-and-periodontics.business.site/",
    "fake_data": "fake_data"
  },
  {
    "name": "Dental Express",
    "abbreviation": "Express",
    "address": "4110 W Point Loma Blvd",
    "area": "Midway",
    "city": "San Diego",
    "state": "CA",
    "zip": 92110,
    "phone": "(619) 304-7327",
    "latitude": 32.753737,
    "longitude": -117.223805,
    "procedure": "adult_cleaning",
    "cost": 100,
    "website": "https://thedentalexpress.com/w-point-loma-blvd/",
    "fake_data": "actual_data"
  },
  {
    "name": "Dental Express",
    "abbreviation": "Express",
    "address": "4110 W Point Loma Blvd",
    "area": "Midway",
    "city": "San Diego",
    "state": "CA",
    "zip": 92110,
    "phone": "(619) 304-7327",
    "latitude": 32.753737,
    "longitude": -117.223805,
    "procedure": "composite_filling",
    "cost": 120,
    "website": "https://thedentalexpress.com/w-point-loma-blvd/",
    "fake_data": "actual_data"
  },
  {
    "name": "Dental Express",
    "abbreviation": "Express",
    "address": "4110 W Point Loma Blvd",
    "area": "Midway",
    "city": "San Diego",
    "state": "CA",
    "zip": 92110,
    "phone": "(619) 304-7327",
    "latitude": 32.753737,
    "longitude": -117.223805,
    "procedure": "extraction",
    "cost": 125,
    "website": "https://thedentalexpress.com/w-point-loma-blvd/",
    "fake_data": "actual_data"
  },
  {
    "name": "Dental Express",
    "abbreviation": "Express",
    "address": "4110 W Point Loma Blvd",
    "area": "Midway",
    "city": "San Diego",
    "state": "CA",
    "zip": 92110,
    "phone": "(619) 304-7327",
    "latitude": 32.753737,
    "longitude": -117.223805,
    "procedure": "root_canal",
    "cost": 785,
    "website": "https://thedentalexpress.com/w-point-loma-blvd/",
    "fake_data": "actual_data"
  }
]