[
  {
    "name": "Smile Builders",
    "abbreviation": "Smile Builders",
    "address": "Av Revolucion 993",
    "area": "Zona Centro",
    "city": "Tijuana",
    "state": "Baja California",
    "zip": 22000,
    "phone": "(619) 259-6751",
    "latitude": 32.526848,
    "longitude": -117.036049,
    "procedure": "Adult Cleaning",
    "cost": 45,
    "Adult Cleaning": 45,
    "Composite Filling": 75,
    "Extraction": 80,
    "Root Canal": "400",
    "Porcelain Crown": 550,
    "website": "https://smilebuilders.net/",
    "fake_data": "Actual Data"
  },
  {
    "name": "Smile Builders",
    "abbreviation": "Smile Builders",
    "address": "Av Revolucion 993",
    "area": "Zona Centro",
    "city": "Tijuana",
    "state": "Baja California",
    "zip": 22000,
    "phone": "(619) 259-6751",
    "latitude": 32.526848,
    "longitude": -117.036049,
    "procedure": "Composite Filling",
    "cost": 75,
    "Adult Cleaning": 45,
    "Composite Filling": 75,
    "Extraction": 80,
    "Root Canal": "400",
    "Porcelain Crown": 550,
    "website": "https://smilebuilders.net/",
    "fake_data": "Actual Data"
  },
  {
    "name": "Smile Builders",
    "abbreviation": "Smile Builders",
    "address": "Av Revolucion 993",
    "area": "Zona Centro",
    "city": "Tijuana",
    "state": "Baja California",
    "zip": 22000,
    "phone": "(619) 259-6751",
    "latitude": 32.526848,
    "longitude": -117.036049,
    "procedure": "Extraction",
    "cost": 80,
    "Adult Cleaning": 45,
    "Composite Filling": 75,
    "Extraction": 80,
    "Root Canal": "400",
    "Porcelain Crown": 550,
    "website": "https://smilebuilders.net/",
    "fake_data": "Actual Data"
  },
  {
    "name": "Smile Builders",
    "abbreviation": "Smile Builders",
    "address": "Av Revolucion 993",
    "area": "Zona Centro",
    "city": "Tijuana",
    "state": "Baja California",
    "zip": 22000,
    "phone": "(619) 259-6751",
    "latitude": 32.526848,
    "longitude": -117.036049,
    "procedure": "Root Canal",
    "cost": 400,
    "Adult Cleaning": 45,
    "Composite Filling": 75,
    "Extraction": 80,
    "Root Canal": "400",
    "Porcelain Crown": 550,
    "website": "https://smilebuilders.net/",
    "fake_data": "Actual Data"
  },
  {
    "name": "Smile Builders",
    "abbreviation": "Smile Builders",
    "address": "Av Revolucion 993",
    "area": "Zona Centro",
    "city": "Tijuana",
    "state": "Baja California",
    "zip": 22000,
    "phone": "(619) 259-6751",
    "latitude": 32.526848,
    "longitude": -117.036049,
    "procedure": "Porcelain Crown",
    "cost": 550,
    "Adult Cleaning": 45,
    "Composite Filling": 75,
    "Extraction": 80,
    "Root Canal": "400",
    "Porcelain Crown": 550,
    "website": "https://smilebuilders.net/",
    "fake_data": "Actual Data"
  },
  {
    "name": "Dr Ignacio de la Vega",
    "abbreviation": "Vega",
    "address": "Calle Emiliano Zapata 1717",
    "area": "Zona Centro",
    "city": "Tijuana",
    "state": "Baja California",
    "zip": 22000,
    "phone": "(619) 399-3538",
    "latitude": 32.480226,
    "longitude": -117.015894,
    "procedure": "Adult Cleaning",
    "cost": 40,
    "Adult Cleaning": 40,
    "Composite Filling": 65,
    "Extraction": 85,
    "Root Canal": "260",
    "Porcelain Crown": 475,
    "website": "http://www.drdelavega.com/",
    "fake_data": "Mock Data"
  },
  {
    "name": "Dr Ignacio de la Vega",
    "abbreviation": "Vega",
    "address": "Calle Emiliano Zapata 1717",
    "area": "Zona Centro",
    "city": "Tijuana",
    "state": "Baja California",
    "zip": 22000,
    "phone": "(619) 399-3538",
    "latitude": 32.480226,
    "longitude": -117.015894,
    "procedure": "Composite Filling",
    "cost": 65,
    "Adult Cleaning": 40,
    "Composite Filling": 65,
    "Extraction": 85,
    "Root Canal": "260",
    "Porcelain Crown": 475,
    "website": "http://www.drdelavega.com/",
    "fake_data": "Mock Data"
  },
  {
    "name": "Dr Ignacio de la Vega",
    "abbreviation": "Vega",
    "address": "Calle Emiliano Zapata 1717",
    "area": "Zona Centro",
    "city": "Tijuana",
    "state": "Baja California",
    "zip": 22000,
    "phone": "(619) 399-3538",
    "latitude": 32.480226,
    "longitude": -117.015894,
    "procedure": "Extraction",
    "cost": 85,
    "Adult Cleaning": 40,
    "Composite Filling": 65,
    "Extraction": 85,
    "Root Canal": "260",
    "Porcelain Crown": 475,
    "website": "http://www.drdelavega.com/",
    "fake_data": "Mock Data"
  },
  {
    "name": "Dr Ignacio de la Vega",
    "abbreviation": "Vega",
    "address": "Calle Emiliano Zapata 1717",
    "area": "Zona Centro",
    "city": "Tijuana",
    "state": "Baja California",
    "zip": 22000,
    "phone": "(619) 399-3538",
    "latitude": 32.480226,
    "longitude": -117.015894,
    "procedure": "Root Canal",
    "cost": 260,
    "Adult Cleaning": 40,
    "Composite Filling": 65,
    "Extraction": 85,
    "Root Canal": "260",
    "Porcelain Crown": 475,
    "website": "http://www.drdelavega.com/",
    "fake_data": "Mock Data"
  },
  {
    "name": "Dr Ignacio de la Vega",
    "abbreviation": "Vega",
    "address": "Calle Emiliano Zapata 1717",
    "area": "Zona Centro",
    "city": "Tijuana",
    "state": "Baja California",
    "zip": 22000,
    "phone": "(619) 399-3538",
    "latitude": 32.480226,
    "longitude": -117.015894,
    "procedure": "Porcelain Crown",
    "cost": 475,
    "Adult Cleaning": 40,
    "Composite Filling": 65,
    "Extraction": 85,
    "Root Canal": "260",
    "Porcelain Crown": 475,
    "website": "http://www.drdelavega.com/",
    "fake_data": "Mock Data"
  },
  {
    "name": "Advanced Smiles Dentistry",
    "abbreviation": "Adv Smiles",
    "address": "German Gedovius 10489",
    "area": "Zona Rio",
    "city": "Tijuana",
    "state": "Baja California",
    "zip": 22010,
    "phone": "(619) 488-1557",
    "latitude": 32.519606,
    "longitude": -117.011157,
    "procedure": "Adult Cleaning",
    "cost": 40,
    "Adult Cleaning": 40,
    "Composite Filling": 40,
    "Extraction": 90,
    "Root Canal": "250",
    "Porcelain Crown": 450,
    "website": "https://advancedsmilesdentistry.com/",
    "fake_data": "Actual Data"
  },
  {
    "name": "Advanced Smiles Dentistry",
    "abbreviation": "Adv Smiles",
    "address": "German Gedovius 10489",
    "area": "Zona Rio",
    "city": "Tijuana",
    "state": "Baja California",
    "zip": 22010,
    "phone": "(619) 488-1557",
    "latitude": 32.519606,
    "longitude": -117.011157,
    "procedure": "Composite Filling",
    "cost": 40,
    "Adult Cleaning": 40,
    "Composite Filling": 40,
    "Extraction": 90,
    "Root Canal": "250",
    "Porcelain Crown": 450,
    "website": "https://advancedsmilesdentistry.com/",
    "fake_data": "Actual Data"
  },
  {
    "name": "Advanced Smiles Dentistry",
    "abbreviation": "Adv Smiles",
    "address": "German Gedovius 10489",
    "area": "Zona Rio",
    "city": "Tijuana",
    "state": "Baja California",
    "zip": 22010,
    "phone": "(619) 488-1557",
    "latitude": 32.519606,
    "longitude": -117.011157,
    "procedure": "Extraction",
    "cost": 90,
    "Adult Cleaning": 40,
    "Composite Filling": 40,
    "Extraction": 90,
    "Root Canal": "250",
    "Porcelain Crown": 450,
    "website": "https://advancedsmilesdentistry.com/",
    "fake_data": "Actual Data"
  },
  {
    "name": "Advanced Smiles Dentistry",
    "abbreviation": "Adv Smiles",
    "address": "German Gedovius 10489",
    "area": "Zona Rio",
    "city": "Tijuana",
    "state": "Baja California",
    "zip": 22010,
    "phone": "(619) 488-1557",
    "latitude": 32.519606,
    "longitude": -117.011157,
    "procedure": "Root Canal",
    "cost": 250,
    "Adult Cleaning": 40,
    "Composite Filling": 40,
    "Extraction": 90,
    "Root Canal": "250",
    "Porcelain Crown": 450,
    "website": "https://advancedsmilesdentistry.com/",
    "fake_data": "Actual Data"
  },
  {
    "name": "Advanced Smiles Dentistry",
    "abbreviation": "Adv Smiles",
    "address": "German Gedovius 10489",
    "area": "Zona Rio",
    "city": "Tijuana",
    "state": "Baja California",
    "zip": 22010,
    "phone": "(619) 488-1557",
    "latitude": 32.519606,
    "longitude": -117.011157,
    "procedure": "Porcelain Crown",
    "cost": 450,
    "Adult Cleaning": 40,
    "Composite Filling": 40,
    "Extraction": 90,
    "Root Canal": "250",
    "Porcelain Crown": 450,
    "website": "https://advancedsmilesdentistry.com/",
    "fake_data": "Actual Data"
  },
  {
    "name": "I Love My Dentist",
    "abbreviation": "Love",
    "address": "Av Revolucion 868",
    "area": "Zona Centro",
    "city": "Tijuana",
    "state": "Baja California",
    "zip": 22000,
    "phone": "(619) 452-2823",
    "latitude": 32.526848,
    "longitude": -117.036049,
    "procedure": "Adult Cleaning",
    "cost": 45,
    "Adult Cleaning": 45,
    "Composite Filling": 75,
    "Extraction": 80,
    "Root Canal": "400",
    "Porcelain Crown": 395,
    "website": "https://ilovemydentist.com.mx/",
    "fake_data": "Actual Data"
  },
  {
    "name": "I Love My Dentist",
    "abbreviation": "Love",
    "address": "Av Revolucion 868",
    "area": "Zona Centro",
    "city": "Tijuana",
    "state": "Baja California",
    "zip": 22000,
    "phone": "(619) 452-2823",
    "latitude": 32.526848,
    "longitude": -117.036049,
    "procedure": "Composite Filling",
    "cost": 75,
    "Adult Cleaning": 45,
    "Composite Filling": 75,
    "Extraction": 80,
    "Root Canal": "400",
    "Porcelain Crown": 395,
    "website": "https://ilovemydentist.com.mx/",
    "fake_data": "Actual Data"
  },
  {
    "name": "I Love My Dentist",
    "abbreviation": "Love",
    "address": "Av Revolucion 868",
    "area": "Zona Centro",
    "city": "Tijuana",
    "state": "Baja California",
    "zip": 22000,
    "phone": "(619) 452-2823",
    "latitude": 32.526848,
    "longitude": -117.036049,
    "procedure": "Extraction",
    "cost": 80,
    "Adult Cleaning": 45,
    "Composite Filling": 75,
    "Extraction": 80,
    "Root Canal": "400",
    "Porcelain Crown": 395,
    "website": "https://ilovemydentist.com.mx/",
    "fake_data": "Actual Data"
  },
  {
    "name": "I Love My Dentist",
    "abbreviation": "Love",
    "address": "Av Revolucion 868",
    "area": "Zona Centro",
    "city": "Tijuana",
    "state": "Baja California",
    "zip": 22000,
    "phone": "(619) 452-2823",
    "latitude": 32.526848,
    "longitude": -117.036049,
    "procedure": "Root Canal",
    "cost": 400,
    "Adult Cleaning": 45,
    "Composite Filling": 75,
    "Extraction": 80,
    "Root Canal": "400",
    "Porcelain Crown": 395,
    "website": "https://ilovemydentist.com.mx/",
    "fake_data": "Actual Data"
  },
  {
    "name": "I Love My Dentist",
    "abbreviation": "Love",
    "address": "Av Revolucion 868",
    "area": "Zona Centro",
    "city": "Tijuana",
    "state": "Baja California",
    "zip": 22000,
    "phone": "(619) 452-2823",
    "latitude": 32.526848,
    "longitude": -117.036049,
    "procedure": "Porcelain Crown",
    "cost": 395,
    "Adult Cleaning": 45,
    "Composite Filling": 75,
    "Extraction": 80,
    "Root Canal": "400",
    "Porcelain Crown": 395,
    "website": "https://ilovemydentist.com.mx/",
    "fake_data": "Actual Data"
  },
  {
    "name": "Washington Dental Clinic",
    "abbreviation": "Washington",
    "address": "Av Revolucion 1673",
    "area": "Zona Centro",
    "city": "Tijuana",
    "state": "Baja California",
    "zip": 22000,
    "phone": "(619) 308-7098",
    "latitude": 32.526848,
    "longitude": -117.036049,
    "procedure": "Adult Cleaning",
    "cost": 50,
    "Adult Cleaning": 50,
    "Composite Filling": 40,
    "Extraction": 40,
    "Root Canal": "275",
    "Porcelain Crown": 275,
    "website": "http://washingtondentalclinics.com/",
    "fake_data": "Actual Data"
  },
  {
    "name": "Washington Dental Clinic",
    "abbreviation": "Washington",
    "address": "Av Revolucion 1673",
    "area": "Zona Centro",
    "city": "Tijuana",
    "state": "Baja California",
    "zip": 22000,
    "phone": "(619) 308-7098",
    "latitude": 32.526848,
    "longitude": -117.036049,
    "procedure": "Composite Filling",
    "cost": 40,
    "Adult Cleaning": 50,
    "Composite Filling": 40,
    "Extraction": 40,
    "Root Canal": "275",
    "Porcelain Crown": 275,
    "website": "http://washingtondentalclinics.com/",
    "fake_data": "Actual Data"
  },
  {
    "name": "Washington Dental Clinic",
    "abbreviation": "Washington",
    "address": "Av Revolucion 1673",
    "area": "Zona Centro",
    "city": "Tijuana",
    "state": "Baja California",
    "zip": 22000,
    "phone": "(619) 308-7098",
    "latitude": 32.526848,
    "longitude": -117.036049,
    "procedure": "Extraction",
    "cost": 40,
    "Adult Cleaning": 50,
    "Composite Filling": 40,
    "Extraction": 40,
    "Root Canal": "275",
    "Porcelain Crown": 275,
    "website": "http://washingtondentalclinics.com/",
    "fake_data": "Actual Data"
  },
  {
    "name": "Washington Dental Clinic",
    "abbreviation": "Washington",
    "address": "Av Revolucion 1673",
    "area": "Zona Centro",
    "city": "Tijuana",
    "state": "Baja California",
    "zip": 22000,
    "phone": "(619) 308-7098",
    "latitude": 32.526848,
    "longitude": -117.036049,
    "procedure": "Root Canal",
    "cost": 275,
    "Adult Cleaning": 50,
    "Composite Filling": 40,
    "Extraction": 40,
    "Root Canal": "275",
    "Porcelain Crown": 275,
    "website": "http://washingtondentalclinics.com/",
    "fake_data": "Actual Data"
  },
  {
    "name": "Washington Dental Clinic",
    "abbreviation": "Washington",
    "address": "Av Revolucion 1673",
    "area": "Zona Centro",
    "city": "Tijuana",
    "state": "Baja California",
    "zip": 22000,
    "phone": "(619) 308-7098",
    "latitude": 32.526848,
    "longitude": -117.036049,
    "procedure": "Porcelain Crown",
    "cost": 275,
    "Adult Cleaning": 50,
    "Composite Filling": 40,
    "Extraction": 40,
    "Root Canal": "275",
    "Porcelain Crown": 275,
    "website": "http://washingtondentalclinics.com/",
    "fake_data": "Actual Data"
  },
  {
    "name": "Liberty Dental Clinic",
    "abbreviation": "Liberty",
    "address": "Calle Benito Juarez 2da 2273",
    "area": "Zona Centro",
    "city": "Tijuana",
    "state": "Baja California",
    "zip": 22000,
    "phone": "(619) 319-8892",
    "latitude": 32.535822,
    "longitude": -117.032179,
    "procedure": "Adult Cleaning",
    "cost": 40,
    "Adult Cleaning": 40,
    "Composite Filling": 39,
    "Extraction": 45,
    "Root Canal": "250",
    "Porcelain Crown": 225,
    "website": "http://libertydentaltijuana.com/",
    "fake_data": "Actual Data"
  },
  {
    "name": "Liberty Dental Clinic",
    "abbreviation": "Liberty",
    "address": "Calle Benito Juarez 2da 2273",
    "area": "Zona Centro",
    "city": "Tijuana",
    "state": "Baja California",
    "zip": 22000,
    "phone": "(619) 319-8892",
    "latitude": 32.535822,
    "longitude": -117.032179,
    "procedure": "Composite Filling",
    "cost": 39,
    "Adult Cleaning": 40,
    "Composite Filling": 39,
    "Extraction": 45,
    "Root Canal": "250",
    "Porcelain Crown": 225,
    "website": "http://libertydentaltijuana.com/",
    "fake_data": "Actual Data"
  },
  {
    "name": "Liberty Dental Clinic",
    "abbreviation": "Liberty",
    "address": "Calle Benito Juarez 2da 2273",
    "area": "Zona Centro",
    "city": "Tijuana",
    "state": "Baja California",
    "zip": 22000,
    "phone": "(619) 319-8892",
    "latitude": 32.535822,
    "longitude": -117.032179,
    "procedure": "Extraction",
    "cost": 45,
    "Adult Cleaning": 40,
    "Composite Filling": 39,
    "Extraction": 45,
    "Root Canal": "250",
    "Porcelain Crown": 225,
    "website": "http://libertydentaltijuana.com/",
    "fake_data": "Actual Data"
  },
  {
    "name": "Liberty Dental Clinic",
    "abbreviation": "Liberty",
    "address": "Calle Benito Juarez 2da 2273",
    "area": "Zona Centro",
    "city": "Tijuana",
    "state": "Baja California",
    "zip": 22000,
    "phone": "(619) 319-8892",
    "latitude": 32.535822,
    "longitude": -117.032179,
    "procedure": "Root Canal",
    "cost": 250,
    "Adult Cleaning": 40,
    "Composite Filling": 39,
    "Extraction": 45,
    "Root Canal": "250",
    "Porcelain Crown": 225,
    "website": "http://libertydentaltijuana.com/",
    "fake_data": "Actual Data"
  },
  {
    "name": "Liberty Dental Clinic",
    "abbreviation": "Liberty",
    "address": "Calle Benito Juarez 2da 2273",
    "area": "Zona Centro",
    "city": "Tijuana",
    "state": "Baja California",
    "zip": 22000,
    "phone": "(619) 319-8892",
    "latitude": 32.535822,
    "longitude": -117.032179,
    "procedure": "Porcelain Crown",
    "cost": 225,
    "Adult Cleaning": 40,
    "Composite Filling": 39,
    "Extraction": 45,
    "Root Canal": "250",
    "Porcelain Crown": 225,
    "website": "http://libertydentaltijuana.com/",
    "fake_data": "Actual Data"
  },
  {
    "name": "Dental Alvarez",
    "abbreviation": "Alvarez",
    "address": "Av Mision de Loreto 3045",
    "area": "Zona Rio",
    "city": "Tijuana",
    "state": "Baja California",
    "zip": 22320,
    "phone": "(619) 734-0233",
    "latitude": 32.52055,
    "longitude": -116.973236,
    "procedure": "Adult Cleaning",
    "cost": 50,
    "Adult Cleaning": 50,
    "Composite Filling": 60,
    "Extraction": 60,
    "Root Canal": "275",
    "Porcelain Crown": 300,
    "website": "https://dentalalvarez.com/",
    "fake_data": "Actual Data"
  },
  {
    "name": "Dental Alvarez",
    "abbreviation": "Alvarez",
    "address": "Av Mision de Loreto 3045",
    "area": "Zona Rio",
    "city": "Tijuana",
    "state": "Baja California",
    "zip": 22320,
    "phone": "(619) 734-0233",
    "latitude": 32.52055,
    "longitude": -116.973236,
    "procedure": "Composite Filling",
    "cost": 60,
    "Adult Cleaning": 50,
    "Composite Filling": 60,
    "Extraction": 60,
    "Root Canal": "275",
    "Porcelain Crown": 300,
    "website": "https://dentalalvarez.com/",
    "fake_data": "Actual Data"
  },
  {
    "name": "Dental Alvarez",
    "abbreviation": "Alvarez",
    "address": "Av Mision de Loreto 3045",
    "area": "Zona Rio",
    "city": "Tijuana",
    "state": "Baja California",
    "zip": 22320,
    "phone": "(619) 734-0233",
    "latitude": 32.52055,
    "longitude": -116.973236,
    "procedure": "Extraction",
    "cost": 60,
    "Adult Cleaning": 50,
    "Composite Filling": 60,
    "Extraction": 60,
    "Root Canal": "275",
    "Porcelain Crown": 300,
    "website": "https://dentalalvarez.com/",
    "fake_data": "Actual Data"
  },
  {
    "name": "Dental Alvarez",
    "abbreviation": "Alvarez",
    "address": "Av Mision de Loreto 3045",
    "area": "Zona Rio",
    "city": "Tijuana",
    "state": "Baja California",
    "zip": 22320,
    "phone": "(619) 734-0233",
    "latitude": 32.52055,
    "longitude": -116.973236,
    "procedure": "Root Canal",
    "cost": 275,
    "Adult Cleaning": 50,
    "Composite Filling": 60,
    "Extraction": 60,
    "Root Canal": "275",
    "Porcelain Crown": 300,
    "website": "https://dentalalvarez.com/",
    "fake_data": "Actual Data"
  },
  {
    "name": "Dental Alvarez",
    "abbreviation": "Alvarez",
    "address": "Av Mision de Loreto 3045",
    "area": "Zona Rio",
    "city": "Tijuana",
    "state": "Baja California",
    "zip": 22320,
    "phone": "(619) 734-0233",
    "latitude": 32.52055,
    "longitude": -116.973236,
    "procedure": "Porcelain Crown",
    "cost": 300,
    "Adult Cleaning": 50,
    "Composite Filling": 60,
    "Extraction": 60,
    "Root Canal": "275",
    "Porcelain Crown": 300,
    "website": "https://dentalalvarez.com/",
    "fake_data": "Actual Data"
  },
  {
    "name": "Tijuana Clinic for Cosmetic Dentistry",
    "abbreviation": "TJ Clinic",
    "address": "Dr Atl 2084",
    "area": "Zona Rio",
    "city": "Tijuana",
    "state": "Baja California",
    "zip": 22010,
    "phone": "(619) 971-2297",
    "latitude": 32.524827,
    "longitude": -117.014099,
    "procedure": "Adult Cleaning",
    "cost": 40,
    "Adult Cleaning": 40,
    "Composite Filling": 50,
    "Extraction": 80,
    "Root Canal": "300",
    "Porcelain Crown": 350,
    "website": "https://www.tccdentistry.com/",
    "fake_data": "Mock Data"
  },
  {
    "name": "Tijuana Clinic for Cosmetic Dentistry",
    "abbreviation": "TJ Clinic",
    "address": "Dr Atl 2084",
    "area": "Zona Rio",
    "city": "Tijuana",
    "state": "Baja California",
    "zip": 22010,
    "phone": "(619) 971-2297",
    "latitude": 32.524827,
    "longitude": -117.014099,
    "procedure": "Composite Filling",
    "cost": 50,
    "Adult Cleaning": 40,
    "Composite Filling": 50,
    "Extraction": 80,
    "Root Canal": "300",
    "Porcelain Crown": 350,
    "website": "https://www.tccdentistry.com/",
    "fake_data": "Mock Data"
  },
  {
    "name": "Tijuana Clinic for Cosmetic Dentistry",
    "abbreviation": "TJ Clinic",
    "address": "Dr Atl 2084",
    "area": "Zona Rio",
    "city": "Tijuana",
    "state": "Baja California",
    "zip": 22010,
    "phone": "(619) 971-2297",
    "latitude": 32.524827,
    "longitude": -117.014099,
    "procedure": "Extraction",
    "cost": 80,
    "Adult Cleaning": 40,
    "Composite Filling": 50,
    "Extraction": 80,
    "Root Canal": "300",
    "Porcelain Crown": 350,
    "website": "https://www.tccdentistry.com/",
    "fake_data": "Mock Data"
  },
  {
    "name": "Tijuana Clinic for Cosmetic Dentistry",
    "abbreviation": "TJ Clinic",
    "address": "Dr Atl 2084",
    "area": "Zona Rio",
    "city": "Tijuana",
    "state": "Baja California",
    "zip": 22010,
    "phone": "(619) 971-2297",
    "latitude": 32.524827,
    "longitude": -117.014099,
    "procedure": "Root Canal",
    "cost": 300,
    "Adult Cleaning": 40,
    "Composite Filling": 50,
    "Extraction": 80,
    "Root Canal": "300",
    "Porcelain Crown": 350,
    "website": "https://www.tccdentistry.com/",
    "fake_data": "Mock Data"
  },
  {
    "name": "Tijuana Clinic for Cosmetic Dentistry",
    "abbreviation": "TJ Clinic",
    "address": "Dr Atl 2084",
    "area": "Zona Rio",
    "city": "Tijuana",
    "state": "Baja California",
    "zip": 22010,
    "phone": "(619) 971-2297",
    "latitude": 32.524827,
    "longitude": -117.014099,
    "procedure": "Porcelain Crown",
    "cost": 350,
    "Adult Cleaning": 40,
    "Composite Filling": 50,
    "Extraction": 80,
    "Root Canal": "300",
    "Porcelain Crown": 350,
    "website": "https://www.tccdentistry.com/",
    "fake_data": "Mock Data"
  },
  {
    "name": "Odontologia Integral de Mexico",
    "abbreviation": "Odontologia",
    "address": "Josefa Ortiz de Dominguez 1310",
    "area": "Zona Rio",
    "city": "Tijuana",
    "state": "Baja California",
    "zip": 22010,
    "phone": "6646829464",
    "latitude": 32.522908,
    "longitude": -117.045351,
    "procedure": "Adult Cleaning",
    "cost": 45,
    "Adult Cleaning": 45,
    "Composite Filling": 45,
    "Extraction": 75,
    "Root Canal": "275",
    "Porcelain Crown": 400,
    "website": "http://www.bajadentistry.com/",
    "fake_data": "Mock Data"
  },
  {
    "name": "Odontologia Integral de Mexico",
    "abbreviation": "Odontologia",
    "address": "Josefa Ortiz de Dominguez 1310",
    "area": "Zona Rio",
    "city": "Tijuana",
    "state": "Baja California",
    "zip": 22010,
    "phone": "6646829464",
    "latitude": 32.522908,
    "longitude": -117.045351,
    "procedure": "Composite Filling",
    "cost": 45,
    "Adult Cleaning": 45,
    "Composite Filling": 45,
    "Extraction": 75,
    "Root Canal": "275",
    "Porcelain Crown": 400,
    "website": "http://www.bajadentistry.com/",
    "fake_data": "Mock Data"
  },
  {
    "name": "Odontologia Integral de Mexico",
    "abbreviation": "Odontologia",
    "address": "Josefa Ortiz de Dominguez 1310",
    "area": "Zona Rio",
    "city": "Tijuana",
    "state": "Baja California",
    "zip": 22010,
    "phone": "6646829464",
    "latitude": 32.522908,
    "longitude": -117.045351,
    "procedure": "Extraction",
    "cost": 75,
    "Adult Cleaning": 45,
    "Composite Filling": 45,
    "Extraction": 75,
    "Root Canal": "275",
    "Porcelain Crown": 400,
    "website": "http://www.bajadentistry.com/",
    "fake_data": "Mock Data"
  },
  {
    "name": "Odontologia Integral de Mexico",
    "abbreviation": "Odontologia",
    "address": "Josefa Ortiz de Dominguez 1310",
    "area": "Zona Rio",
    "city": "Tijuana",
    "state": "Baja California",
    "zip": 22010,
    "phone": "6646829464",
    "latitude": 32.522908,
    "longitude": -117.045351,
    "procedure": "Root Canal",
    "cost": 275,
    "Adult Cleaning": 45,
    "Composite Filling": 45,
    "Extraction": 75,
    "Root Canal": "275",
    "Porcelain Crown": 400,
    "website": "http://www.bajadentistry.com/",
    "fake_data": "Mock Data"
  },
  {
    "name": "Odontologia Integral de Mexico",
    "abbreviation": "Odontologia",
    "address": "Josefa Ortiz de Dominguez 1310",
    "area": "Zona Rio",
    "city": "Tijuana",
    "state": "Baja California",
    "zip": 22010,
    "phone": "6646829464",
    "latitude": 32.522908,
    "longitude": -117.045351,
    "procedure": "Porcelain Crown",
    "cost": 400,
    "Adult Cleaning": 45,
    "Composite Filling": 45,
    "Extraction": 75,
    "Root Canal": "275",
    "Porcelain Crown": 400,
    "website": "http://www.bajadentistry.com/",
    "fake_data": "Mock Data"
  },
  {
    "name": "American Bio-Dental Center",
    "abbreviation": "Bio-Dental",
    "address": "Blvd Agua Caliente 4558",
    "area": "La Chapu",
    "city": "Tijuana",
    "state": "Baja California",
    "zip": 22420,
    "phone": "(877) 207-0824",
    "latitude": 32.512397,
    "longitude": -117.002315,
    "procedure": "Adult Cleaning",
    "cost": 35,
    "Adult Cleaning": 35,
    "Composite Filling": 75,
    "Extraction": 200,
    "Root Canal": "N/A",
    "Porcelain Crown": 550,
    "website": "https://americanbiodental.com/",
    "fake_data": "Actual Data"
  },
  {
    "name": "American Bio-Dental Center",
    "abbreviation": "Bio-Dental",
    "address": "Blvd Agua Caliente 4558",
    "area": "La Chapu",
    "city": "Tijuana",
    "state": "Baja California",
    "zip": 22420,
    "phone": "(877) 207-0824",
    "latitude": 32.512397,
    "longitude": -117.002315,
    "procedure": "Composite Filling",
    "cost": 75,
    "Adult Cleaning": 35,
    "Composite Filling": 75,
    "Extraction": 200,
    "Root Canal": "N/A",
    "Porcelain Crown": 550,
    "website": "https://americanbiodental.com/",
    "fake_data": "Actual Data"
  },
  {
    "name": "American Bio-Dental Center",
    "abbreviation": "Bio-Dental",
    "address": "Blvd Agua Caliente 4558",
    "area": "La Chapu",
    "city": "Tijuana",
    "state": "Baja California",
    "zip": 22420,
    "phone": "(877) 207-0824",
    "latitude": 32.512397,
    "longitude": -117.002315,
    "procedure": "Extraction",
    "cost": 200,
    "Adult Cleaning": 35,
    "Composite Filling": 75,
    "Extraction": 200,
    "Root Canal": "N/A",
    "Porcelain Crown": 550,
    "website": "https://americanbiodental.com/",
    "fake_data": "Actual Data"
  },
  {
    "name": "American Bio-Dental Center",
    "abbreviation": "Bio-Dental",
    "address": "Blvd Agua Caliente 4558",
    "area": "La Chapu",
    "city": "Tijuana",
    "state": "Baja California",
    "zip": 22420,
    "phone": "(877) 207-0824",
    "latitude": 32.512397,
    "longitude": -117.002315,
    "procedure": "Root Canal",
    "cost": 0,
    "Adult Cleaning": 35,
    "Composite Filling": 75,
    "Extraction": 200,
    "Root Canal": "N/A",
    "Porcelain Crown": 550,
    "website": "https://americanbiodental.com/",
    "fake_data": "Actual Data"
  },
  {
    "name": "American Bio-Dental Center",
    "abbreviation": "Bio-Dental",
    "address": "Blvd Agua Caliente 4558",
    "area": "La Chapu",
    "city": "Tijuana",
    "state": "Baja California",
    "zip": 22420,
    "phone": "(877) 207-0824",
    "latitude": 32.512397,
    "longitude": -117.002315,
    "procedure": "Porcelain Crown",
    "cost": 550,
    "Adult Cleaning": 35,
    "Composite Filling": 75,
    "Extraction": 200,
    "Root Canal": "N/A",
    "Porcelain Crown": 550,
    "website": "https://americanbiodental.com/",
    "fake_data": "Actual Data"
  }
]